[
  {
    "name": "Hangry Kemanggisan",
    "lat": "-6.197845616997837",
    "lng": "106.79480144562578"
  },
  {
    "name": "Hangry Puri Pesanggrahan",
    "lat": "-6.18204887822293",
    "lng": "106.74544930697"
  },
  {
    "name": "Hangry Grogol",
    "lat": "-6.157686156986272",
    "lng": "106.78174495841687"
  },
  {
    "name": "Hangry Joglo",
    "lat": "-6.215177817689931",
    "lng": "106.76705718201175"
  },
  {
    "name": "Hangry Permata Hijau",
    "lat": "-6.236716909666435",
    "lng": "106.78074717668304"
  }
]
